{"control":{"expires":43200},"status":0,"data":{"朝阳区":[{"nm":"CGV星星影城(奥体店)","preferential":0,"sellPrice":49.0,"poiId":360511,"ct":"","sellmin":0,"sell":true,"addr":"朝阳区湖景东路11号新奥购物中心B1-B2楼","area":"朝阳区","lat":39.999462,"lng":116.39392,"deal":0,"distance":0,"imax":0,"brd":"CGV影城","dis":"亚运村","brdId":2020418,"dealPrice":0.0,"referencePrice":40.0,"showCount":0,"id":65,"follow":0},{"nm":"CGV星星影城(颐堤港店)","preferential":0,"sellPrice":58.0,"poiId":1466992,"ct":"","sellmin":0,"sell":true,"addr":"朝阳区酒仙桥路18号颐堤港4层","area":"朝阳区","lat":39.96964,"lng":116.4909,"deal":0,"distance":0,"imax":0,"brd":"CGV影城","dis":"酒仙桥","brdId":2020418,"dealPrice":0.0,"referencePrice":40.0,"showCount":0,"id":8,"follow":0},{"nm":"K酷国际影城","preferential":0,"sellPrice":38.0,"poiId":796845,"ct":"","sellmin":0,"sell":true,"addr":"朝阳区北苑路42号卜峰莲花超市4楼（K酷时尚广场）","area":"朝阳区","lat":40.033382,"lng":116.41916,"deal":0,"distance":0,"imax":0,"brd":"K酷国际影城","dis":"亚运村","brdId":24003,"dealPrice":0.0,"referencePrice":80.0,"showCount":0,"id":21,"follow":0},{"nm":"UME国际影城(双井店)","preferential":0,"sellPrice":39.5,"poiId":291070,"ct":"","sellmin":0,"sell":true,"addr":"朝阳区东三环中路65号富力广场6楼（双井桥北）","area":"朝阳区","lat":39.89768,"lng":116.45983,"deal":0,"distance":0,"imax":0,"brd":"UME国际影城","dis":"双井","brdId":24071,"dealPrice":0.0,"referencePrice":70.0,"showCount":0,"id":135,"follow":0},{"nm":"奥兰环球影城(望京店)","preferential":0,"sellPrice":33.9,"poiId":106343887,"ct":"","sellmin":0,"sell":true,"addr":"朝阳区来广营西路5号院诚盈中心商业街","area":"朝阳区","lat":40.021084,"lng":116.46593,"deal":0,"distance":0,"imax":0,"brd":"其它","dis":"","brdId":0,"dealPrice":0.0,"referencePrice":0.0,"showCount":0,"id":16421,"follow":0},{"nm":"艾米·1895电影街","preferential":0,"sellPrice":38.0,"poiId":42853106,"ct":"","sellmin":0,"sell":true,"addr":"朝阳区工体北路13号世茂工三3楼，艾米·1895电影街（三里屯商圈）","area":"朝阳区","lat":39.93605,"lng":116.44939,"deal":0,"distance":0,"imax":0,"brd":"其它","dis":"","brdId":0,"dealPrice":0.0,"referencePrice":0.0,"showCount":0,"id":13640,"follow":0},{"nm":"北京东融国际影城(西直河店)","preferential":0,"sellPrice":23.0,"poiId":91811925,"ct":"","sellmin":0,"sell":true,"addr":"朝阳区西直河商业广场华联购物广场1楼","area":"朝阳区","lat":39.844444,"lng":116.52732,"deal":0,"distance":0,"imax":0,"brd":"其它","dis":"","brdId":0,"dealPrice":0.0,"referencePrice":0.0,"showCount":0,"id":15415,"follow":0},{"nm":"北京剧院","preferential":0,"sellPrice":38.0,"poiId":82597,"ct":"","sellmin":0,"sell":true,"addr":"朝阳区安慧里三区10号","area":"朝阳区","lat":39.990856,"lng":116.40813,"deal":0,"distance":0,"imax":0,"brd":"北京剧院","dis":"亚运村","brdId":254168,"dealPrice":0.0,"referencePrice":80.0,"showCount":0,"id":248,"follow":0},{"nm":"保利国际影城(北苑华贸店)","preferential":0,"sellPrice":39.0,"poiId":361205,"ct":"","sellmin":0,"sell":true,"addr":"朝阳区清河营南街7号院华贸天地B1楼","area":"朝阳区","lat":40.047962,"lng":116.43101,"deal":0,"distance":0,"imax":0,"brd":"保利国际影城","dis":"北苑","brdId":24472,"dealPrice":0.0,"referencePrice":25.0,"showCount":0,"id":2603,"follow":0},{"nm":"保利国际影城(东坝店)","preferential":0,"sellPrice":29.0,"poiId":73452594,"ct":"","sellmin":0,"sell":true,"addr":"朝阳区东坝中路38号金隅嘉品MALL5层","area":"朝阳区","lat":39.951107,"lng":116.54848,"deal":0,"distance":0,"imax":0,"brd":"保利国际影城","dis":"","brdId":24472,"dealPrice":0.0,"referencePrice":0.0,"showCount":0,"id":14430,"follow":0},{"nm":"保利国际影城(望京店)","preferential":0,"sellPrice":33.0,"poiId":1107541,"ct":"","sellmin":0,"sell":true,"addr":"朝阳区望京阜通西大街新荟城购物中心五层","area":"朝阳区","lat":39.998497,"lng":116.481926,"deal":0,"distance":0,"imax":0,"brd":"保利国际影城","dis":"望京","brdId":24472,"dealPrice":0.0,"referencePrice":70.0,"showCount":0,"id":39,"follow":0},{"nm":"保利国际影城(中国科技馆店)","preferential":0,"sellPrice":34.0,"poiId":61574,"ct":"","sellmin":0,"sell":true,"addr":"朝阳区北辰东路5号（鸟巢正北一公里）","area":"朝阳区","lat":40.005745,"lng":116.39992,"deal":0,"distance":0,"imax":0,"brd":"保利国际影城","dis":"亚运村","brdId":24472,"dealPrice":0.0,"referencePrice":80.0,"showCount":0,"id":40,"follow":0},{"nm":"百丽宫影城(国贸店)","preferential":0,"sellPrice":44.0,"poiId":3281398,"ct":"","sellmin":0,"sell":true,"addr":"朝阳区北京市建国门外大街1号国贸商城北区3B120","area":"朝阳区","lat":39.91279,"lng":116.45982,"deal":0,"distance":0,"imax":0,"brd":"百老汇影城","dis":"国贸","brdId":24377,"dealPrice":0.0,"referencePrice":90.0,"showCount":0,"id":23,"follow":0},{"nm":"博纳国际影城(悠唐店)","preferential":0,"sellPrice":44.0,"poiId":63,"ct":"","sellmin":0,"sell":true,"addr":"朝阳区三丰北里2号楼悠唐生活广场B1楼（近钱柜）","area":"朝阳区","lat":39.921932,"lng":116.4385,"deal":0,"distance":0,"imax":1,"brd":"博纳国际影城","dis":"朝外大街","brdId":24595,"dealPrice":0.0,"referencePrice":35.0,"showCount":0,"id":116,"follow":0},{"nm":"传奇时代影城(蓝色港湾店)","preferential":0,"sellPrice":39.5,"poiId":297916,"ct":"","sellmin":0,"sell":true,"addr":"朝阳区朝阳公园路6号蓝色港湾国际商区SA-42（朝阳公园西北角）","area":"朝阳区","lat":39.948925,"lng":116.47621,"deal":0,"distance":0,"imax":0,"brd":"传奇时代影城","dis":"亮马桥","brdId":24804,"dealPrice":0.0,"referencePrice":40.0,"showCount":0,"id":132,"follow":0},{"nm":"橙天嘉禾影城(凤凰城店)","preferential":0,"sellPrice":34.5,"poiId":1465641,"ct":"","sellmin":0,"sell":true,"addr":"朝阳区曙光西里甲5号院24号楼凤凰汇三层","area":"朝阳区","lat":39.963345,"lng":116.457664,"deal":0,"distance":0,"imax":0,"brd":"橙天嘉禾影城","dis":"三元桥","brdId":24745,"dealPrice":0.0,"referencePrice":80.0,"showCount":0,"id":2081,"follow":0},{"nm":"朝阳剧场","preferential":0,"sellPrice":38.0,"poiId":82595,"ct":"","sellmin":0,"sell":true,"addr":"朝阳区东三环北路36号呼家楼北（近朝阳北路）","area":"朝阳区","lat":39.922314,"lng":116.462105,"deal":0,"distance":0,"imax":0,"brd":"朝阳剧场","dis":"亮马桥","brdId":635050,"dealPrice":0.0,"referencePrice":60.0,"showCount":0,"id":249,"follow":0},{"nm":"大地数字影院(望京新天地店)","preferential":0,"sellPrice":34.0,"poiId":4036242,"ct":"","sellmin":0,"sell":true,"addr":"朝阳区望京阜安西街11号楼合生麒麟新天地2层","area":"朝阳区","lat":39.99817,"lng":116.47787,"deal":0,"distance":0,"imax":0,"brd":"大地影院","dis":"","brdId":384262,"dealPrice":0.0,"referencePrice":0.0,"showCount":0,"id":7881,"follow":0},{"nm":"东都影城","preferential":0,"sellPrice":44.0,"poiId":30903,"ct":"","sellmin":0,"sell":true,"addr":"朝阳区东四环中路195号华腾新天地五层","area":"朝阳区","lat":39.885048,"lng":116.48847,"deal":0,"distance":0,"imax":0,"brd":"东都影城","dis":"大望路","brdId":133085,"dealPrice":0.0,"referencePrice":43.0,"showCount":0,"id":262,"follow":0},{"nm":"大地影院(垡头永辉店)","preferential":0,"sellPrice":39.0,"poiId":41877507,"ct":"","sellmin":0,"sell":true,"addr":"朝阳区南杨庄路与武基街交叉口西南方向50米路南（垡头永辉超市，翠城馨园401号楼地下一层）","area":"朝阳区","lat":39.856857,"lng":116.50524,"deal":0,"distance":0,"imax":0,"brd":"大地影院","dis":"","brdId":384262,"dealPrice":0.0,"referencePrice":0.0,"showCount":0,"id":10954,"follow":0},{"nm":"大地影院(十里河铭泽影院 )","preferential":0,"sellPrice":39.0,"poiId":40086376,"ct":"","sellmin":0,"sell":true,"addr":"朝阳区西大望南路与弘燕南一路交叉口铭泽生活广场5层","area":"朝阳区","lat":39.864407,"lng":116.47688,"deal":0,"distance":0,"imax":0,"brd":"大地影院","dis":"","brdId":384262,"dealPrice":0.0,"referencePrice":0.0,"showCount":0,"id":10951,"follow":0},{"nm":"海航文化天宝国际影城","preferential":0,"sellPrice":28.0,"poiId":1098864,"ct":"","sellmin":0,"sell":true,"addr":"朝阳区祁家豁子8号健翔大厦家乐福超市B1层","area":"朝阳区","lat":39.98034,"lng":116.38147,"deal":0,"distance":0,"imax":0,"brd":"其它","dis":"亚运村","brdId":0,"dealPrice":0.0,"referencePrice":80.0,"showCount":0,"id":31,"follow":0},{"nm":"红星太平洋电影城(爱琴海购物中心店)","preferential":0,"sellPrice":43.0,"poiId":5948789,"ct":"","sellmin":0,"sell":true,"addr":"朝阳区七圣中街12号院爱琴海购物中心6层","area":"朝阳区","lat":39.97224,"lng":116.436386,"deal":0,"distance":0,"imax":0,"brd":"太平洋电影城","dis":"","brdId":28975,"dealPrice":0.0,"referencePrice":0.0,"showCount":0,"id":7619,"follow":0},{"nm":"华谊兄弟电影汇","preferential":0,"sellPrice":680.0,"poiId":112208438,"ct":"","sellmin":0,"sell":true,"addr":"朝阳区新源南路甲2号华谊兄弟办公楼首层","area":"朝阳区","lat":39.948593,"lng":116.45831,"deal":0,"distance":0,"imax":0,"brd":"华谊兄弟影院","dis":"","brdId":275830,"dealPrice":0.0,"referencePrice":0.0,"showCount":0,"id":16467,"follow":0},{"nm":"嘉华国际影城(活力东方店)","preferential":0,"sellPrice":34.0,"poiId":2578227,"ct":"","sellmin":0,"sell":true,"addr":"朝阳区姚家园路甲1号活力东方奥特莱斯购物中心4楼","area":"朝阳区","lat":39.940395,"lng":116.52246,"deal":0,"distance":0,"imax":0,"brd":"嘉华国际影城","dis":"","brdId":26413,"dealPrice":0.0,"referencePrice":70.0,"showCount":0,"id":5987,"follow":0},{"nm":"金鸡百花影城","preferential":0,"sellPrice":40.0,"poiId":89000,"ct":"","sellmin":0,"sell":true,"addr":"朝阳区北三环东路22号","area":"朝阳区","lat":39.96894,"lng":116.42397,"deal":0,"distance":0,"imax":0,"brd":"金鸡百花影城","dis":"左家庄","brdId":1082447,"dealPrice":0.0,"referencePrice":30.0,"showCount":0,"id":256,"follow":0},{"nm":"劲松电影院","preferential":0,"sellPrice":33.0,"poiId":82588,"ct":"","sellmin":0,"sell":true,"addr":"朝阳区劲松中街404号","area":"朝阳区","lat":39.88321,"lng":116.45597,"deal":0,"distance":0,"imax":0,"brd":"劲松电影院","dis":"劲松","brdId":252281,"dealPrice":0.0,"referencePrice":30.0,"showCount":0,"id":236,"follow":0},{"nm":"金逸影城(朝阳大悦城IMAX店)","preferential":0,"sellPrice":53.5,"poiId":1548100,"ct":"","sellmin":0,"sell":true,"addr":"朝阳区朝阳北路101号朝阳大悦城商场8层","area":"朝阳区","lat":39.924355,"lng":116.51871,"deal":0,"distance":0,"imax":1,"brd":"金逸影城","dis":"十里堡","brdId":1079568,"dealPrice":0.0,"referencePrice":80.0,"showCount":0,"id":88,"follow":0},{"nm":"金逸影城(双桥店)","preferential":0,"sellPrice":38.5,"poiId":1439570,"ct":"","sellmin":0,"sell":true,"addr":"朝阳区双桥路3号东星时尚广场5层","area":"朝阳区","lat":39.90879,"lng":116.57644,"deal":0,"distance":0,"imax":0,"brd":"金逸影城","dis":"管庄","brdId":1079568,"dealPrice":0.0,"referencePrice":0.0,"showCount":0,"id":1692,"follow":0},{"nm":"卢米埃影城(芳草地店)","preferential":0,"sellPrice":54.0,"poiId":332108,"ct":"","sellmin":0,"sell":true,"addr":"朝阳区东大桥路9号侨福芳草地购物中心LG2-26（尚都SOHO对面）","area":"朝阳区","lat":39.91955,"lng":116.44965,"deal":0,"distance":0,"imax":0,"brd":"卢米埃影城","dis":"","brdId":292030,"dealPrice":0.0,"referencePrice":50.0,"showCount":0,"id":5736,"follow":0},{"nm":"卢米埃影城(长楹天街IMAX店)","preferential":0,"sellPrice":29.0,"poiId":52539636,"ct":"","sellmin":0,"sell":true,"addr":"朝阳区朝阳北路长楹天街购物中心东区5F-09","area":"朝阳区","lat":39.92509,"lng":116.60262,"deal":0,"distance":0,"imax":1,"brd":"卢米埃影城","dis":"","brdId":292030,"dealPrice":0.0,"referencePrice":0.0,"showCount":0,"id":13204,"follow":0},{"nm":"鲁信影城(立水桥店)","preferential":0,"sellPrice":29.9,"poiId":1541423,"ct":"","sellmin":0,"sell":true,"addr":"朝阳区立清路明天第一城7号院，蓝黛时空汇内","area":"朝阳区","lat":40.04711,"lng":116.4083,"deal":0,"distance":0,"imax":0,"brd":"鲁信影城","dis":"北苑家园","brdId":27424,"dealPrice":0.0,"referencePrice":70.0,"showCount":0,"id":1732,"follow":0},{"nm":"米高梅国际影城(工体店)","preferential":0,"sellPrice":28.0,"poiId":150108303,"ct":"","sellmin":0,"sell":true,"addr":"朝阳区工体北路21号永利国际购物中心B1","area":"朝阳区","lat":39.934753,"lng":116.44457,"deal":0,"distance":0,"imax":0,"brd":"其它","dis":"","brdId":0,"dealPrice":0.0,"referencePrice":0.0,"showCount":0,"id":16813,"follow":0},{"nm":"美嘉欢乐影城(三里屯店)","preferential":0,"sellPrice":69.0,"poiId":30915,"ct":"","sellmin":0,"sell":true,"addr":"朝阳区三里屯太古里地下一层（三里屯酒吧街南口西侧）","area":"朝阳区","lat":39.93429,"lng":116.454384,"deal":0,"distance":0,"imax":0,"brd":"美嘉欢乐影城","dis":"三里屯","brdId":27617,"dealPrice":0.0,"referencePrice":80.0,"showCount":0,"id":136,"follow":0},{"nm":"米瑞酷影城(日坛店)","preferential":0,"sellPrice":33.0,"poiId":108119917,"ct":"","sellmin":0,"sell":true,"addr":"朝阳区神路街39号b座-1层","area":"朝阳区","lat":39.92012,"lng":116.44342,"deal":0,"distance":0,"imax":0,"brd":"其它","dis":"","brdId":0,"dealPrice":0.0,"referencePrice":0.0,"showCount":0,"id":16179,"follow":0},{"nm":"明星时代影城(北京梦秀店)","preferential":0,"sellPrice":28.0,"poiId":152364320,"ct":"","sellmin":0,"sell":true,"addr":"朝阳区望京西路41号楼1-7层101内五层5-05号-六层6-01号","area":"朝阳区","lat":39.99436,"lng":116.45696,"deal":0,"distance":0,"imax":0,"brd":"其它","dis":"","brdId":0,"dealPrice":0.0,"referencePrice":0.0,"showCount":0,"id":17139,"follow":0},{"nm":"世贸天阶中影星美国际影城","preferential":0,"sellPrice":38.0,"poiId":150027704,"ct":"","sellmin":0,"sell":true,"addr":"朝阳区光华路9号世贸天阶商业南街B1层","area":"朝阳区","lat":39.916237,"lng":116.45202,"deal":0,"distance":0,"imax":0,"brd":"其它","dis":"","brdId":0,"dealPrice":0.0,"referencePrice":0.0,"showCount":0,"id":16773,"follow":0},{"nm":"万达国际影城(CBD店)","preferential":0,"sellPrice":43.0,"poiId":30863,"ct":"","sellmin":0,"sell":true,"addr":"朝阳区建国路93号万达广场B座3层","area":"朝阳区","lat":39.909027,"lng":116.4709,"deal":0,"distance":0,"imax":1,"brd":"万达影城","dis":"大望路","brdId":102642,"dealPrice":0.0,"referencePrice":80.0,"showCount":0,"id":264,"follow":0},{"nm":"完美世界影城(17.5比如店)","preferential":0,"sellPrice":30.0,"poiId":75603,"ct":"","sellmin":0,"sell":true,"addr":"朝阳区京顺路111号比如世界购物中心1层（近太阳宫北街）","area":"朝阳区","lat":39.9684,"lng":116.46204,"deal":0,"distance":0,"imax":0,"brd":"其它","dis":"望京","brdId":0,"dealPrice":0.0,"referencePrice":70.0,"showCount":0,"id":48,"follow":0},{"nm":"完美世界影城(17.5管庄店)","preferential":0,"sellPrice":34.0,"poiId":1677952,"ct":"","sellmin":0,"sell":true,"addr":"朝阳区朝阳路京通苑30号楼L307PLus365购物中心三层","area":"朝阳区","lat":39.912422,"lng":116.596085,"deal":0,"distance":0,"imax":0,"brd":"17.5影城","dis":"管庄","brdId":23854,"dealPrice":0.0,"referencePrice":60.0,"showCount":0,"id":2243,"follow":0},{"nm":"沃美影城(常营店)","preferential":0,"sellPrice":39.0,"poiId":5529977,"ct":"","sellmin":0,"sell":true,"addr":"朝阳区朝阳北路17号北京华联购物中心四层（常营华联）","area":"朝阳区","lat":39.926247,"lng":116.59568,"deal":0,"distance":0,"imax":0,"brd":"沃美影城","dis":"","brdId":29462,"dealPrice":0.0,"referencePrice":0.0,"showCount":0,"id":8065,"follow":0},{"nm":"星环影城(立水桥店)","preferential":0,"sellPrice":38.0,"poiId":3260787,"ct":"","sellmin":0,"sell":true,"addr":"朝阳区立汤路201号东亚奥北南区北门一楼（华泰汽车斜对面，立水桥地铁A口北行150米）","area":"朝阳区","lat":40.05452,"lng":116.41205,"deal":0,"distance":0,"imax":0,"brd":"其它","dis":"","brdId":0,"dealPrice":0.0,"referencePrice":60.0,"showCount":0,"id":9914,"follow":0},{"nm":"星美国际影城(世界城店)","preferential":0,"sellPrice":37.0,"poiId":316112,"ct":"","sellmin":0,"sell":true,"addr":"朝阳区金汇路8号世界城E座B1楼（世贸天阶商业街北侧）","area":"朝阳区","lat":39.917755,"lng":116.45232,"deal":0,"distance":0,"imax":0,"brd":"星美国际影城","dis":"朝外大街","brdId":30032,"dealPrice":0.0,"referencePrice":35.0,"showCount":0,"id":98,"follow":0},{"nm":"星美国际影城(望京店)","preferential":0,"sellPrice":39.0,"poiId":1558123,"ct":"","sellmin":0,"sell":true,"addr":"朝阳区望京街9号望京国际商业中心A座4楼","area":"朝阳区","lat":39.990322,"lng":116.48359,"deal":0,"distance":0,"imax":0,"brd":"星美国际影城","dis":"望京","brdId":30032,"dealPrice":0.0,"referencePrice":40.0,"showCount":0,"id":175,"follow":0},{"nm":"新影联·华谊兄弟影院(望京店)","preferential":0,"sellPrice":44.0,"poiId":82583,"ct":"","sellmin":0,"sell":true,"addr":"朝阳区广顺北大街16号望京华彩商业中心B1a","area":"朝阳区","lat":40.01051,"lng":116.46821,"deal":0,"distance":0,"imax":0,"brd":"华谊兄弟影院","dis":"望京","brdId":275830,"dealPrice":0.0,"referencePrice":80.0,"showCount":0,"id":72,"follow":0},{"nm":"耀莱成龙国际影城(慈云寺店)","preferential":0,"sellPrice":43.0,"poiId":4230363,"ct":"","sellmin":0,"sell":true,"addr":"朝阳区慈云寺北里209号未来汇二层（未来汇广场）","area":"朝阳区","lat":39.916008,"lng":116.49176,"deal":0,"distance":0,"imax":0,"brd":"耀莱成龙国际影城","dis":"","brdId":30227,"dealPrice":0.0,"referencePrice":0.0,"showCount":0,"id":9730,"follow":0},{"nm":"中国木偶艺术剧院","preferential":0,"sellPrice":38.0,"poiId":82596,"ct":"","sellmin":0,"sell":true,"addr":"朝阳区安华西里甲1号","area":"朝阳区","lat":39.96802,"lng":116.40147,"deal":0,"distance":0,"imax":0,"brd":"其它","dis":"安贞","brdId":0,"dealPrice":0.0,"referencePrice":0.0,"showCount":0,"id":252,"follow":0},{"nm":"紫光影城(蓝岛店)","preferential":0,"sellPrice":23.0,"poiId":3274641,"ct":"","sellmin":0,"sell":true,"addr":"朝阳区朝外大街8号（蓝岛大厦西区5-6层）","area":"朝阳区","lat":39.922623,"lng":116.44817,"deal":0,"distance":0,"imax":0,"brd":"紫光影城","dis":"朝外大街","brdId":31014,"dealPrice":0.0,"referencePrice":35.0,"showCount":0,"id":259,"follow":0},{"nm":"枫花园汽车影院","preferential":0,"sellPrice":0.0,"poiId":271415,"ct":"","sellmin":0,"sell":false,"addr":"朝阳区亮马桥路21号（朝阳公园北门对面）","area":"朝阳区","lat":39.95855,"lng":116.48107,"deal":0,"distance":0,"imax":0,"brd":"枫花园汽车影院","dis":"亮马桥","brdId":651783,"dealPrice":0.0,"referencePrice":100.0,"showCount":0,"id":254,"follow":0},{"nm":"曙光影院","preferential":0,"sellPrice":0.0,"poiId":3305306,"ct":"","sellmin":0,"sell":false,"addr":"朝阳区垡头西里44号垡头文化中心B1","area":"朝阳区","lat":39.861492,"lng":116.51347,"deal":0,"distance":0,"imax":0,"brd":"其它","dis":"垡头西里","brdId":0,"dealPrice":0.0,"referencePrice":0.0,"showCount":0,"id":4548,"follow":0},{"nm":"阳光影城(安立路店)","preferential":0,"sellPrice":38.0,"poiId":90846,"ct":"","sellmin":0,"sell":false,"addr":"朝阳区安立路68号飘亮广场B1层","area":"朝阳区","lat":39.997986,"lng":116.409164,"deal":0,"distance":0,"imax":0,"brd":"阳光影城","dis":"亚运村","brdId":30206,"dealPrice":0.0,"referencePrice":70.0,"showCount":0,"id":174,"follow":0},{"nm":"中国电影博物馆","preferential":0,"sellPrice":0.0,"poiId":1436410,"ct":"","sellmin":0,"sell":false,"addr":"朝阳区南影路9号","area":"朝阳区","lat":39.9962,"lng":116.521,"deal":0,"distance":0,"imax":1,"brd":"其它","dis":"草场地","brdId":0,"dealPrice":0.0,"referencePrice":40.0,"showCount":0,"id":181,"follow":0}],"HDQ":[{"nm":"17.5影城(今典花园店)","preferential":0,"sellPrice":35.0,"poiId":273950,"ct":"","sellmin":0,"sell":true,"addr":"海淀区文慧园路9号今典花园9号楼空间蒙太奇大厦1层","area":"海淀区","lat":39.95334,"lng":116.36104,"deal":0,"distance":0,"imax":0,"brd":"17.5影城","dis":"北太平庄","brdId":23854,"dealPrice":0.0,"referencePrice":60.0,"showCount":0,"id":154,"follow":0},{"nm":"CGV星聚汇影城(清河店)","preferential":0,"sellPrice":49.0,"poiId":2374984,"ct":"","sellmin":0,"sell":true,"addr":"海淀区清河中街68号华润五彩城购物中心东区7层","area":"海淀区","lat":40.030476,"lng":116.334724,"deal":0,"distance":0,"imax":0,"brd":"CGV影城","dis":"","brdId":2020418,"dealPrice":0.0,"referencePrice":40.0,"showCount":0,"id":5111,"follow":0},{"nm":"UME国际影城(华星店)","preferential":0,"sellPrice":39.5,"poiId":1436373,"ct":"","sellmin":0,"sell":true,"addr":"海淀区双榆树科学院南路44号（双安商场对面）","area":"海淀区","lat":39.967793,"lng":116.326096,"deal":0,"distance":0,"imax":1,"brd":"UME国际影城","dis":"中关村","brdId":24071,"dealPrice":0.0,"referencePrice":70.0,"showCount":0,"id":155,"follow":0},{"nm":"博纳国际影城(万寿路店)","preferential":0,"sellPrice":39.0,"poiId":1460949,"ct":"","sellmin":0,"sell":true,"addr":"海淀区复兴路51号凯德晶品购物中心4层","area":"海淀区","lat":39.908405,"lng":116.29659,"deal":0,"distance":0,"imax":0,"brd":"博纳国际影城","dis":"万寿路","brdId":24595,"dealPrice":0.0,"referencePrice":80.0,"showCount":0,"id":1624,"follow":0},{"nm":"橙天嘉禾影城(吉彩店)","preferential":0,"sellPrice":39.5,"poiId":2393106,"ct":"","sellmin":0,"sell":true,"addr":"海淀区玉海园五里22号配套商业楼（原吉彩体育馆）","area":"海淀区","lat":39.922768,"lng":116.25956,"deal":0,"distance":0,"imax":0,"brd":"橙天嘉禾影城","dis":"","brdId":24745,"dealPrice":0.0,"referencePrice":80.0,"showCount":0,"id":5313,"follow":0},{"nm":"橙天嘉禾影城(上地店)","preferential":0,"sellPrice":59.5,"poiId":14447,"ct":"","sellmin":0,"sell":true,"addr":"海淀区上地南口华联商厦4F","area":"海淀区","lat":40.02865,"lng":116.31154,"deal":0,"distance":0,"imax":0,"brd":"橙天嘉禾影城","dis":"上地","brdId":24745,"dealPrice":0.0,"referencePrice":80.0,"showCount":0,"id":130,"follow":0},{"nm":"橙天嘉禾影城(万柳店)","preferential":0,"sellPrice":59.5,"poiId":3303603,"ct":"","sellmin":0,"sell":true,"addr":"海淀区巴沟路2号华联万柳购物中心5层","area":"海淀区","lat":39.97296,"lng":116.29486,"deal":0,"distance":0,"imax":0,"brd":"橙天嘉禾影城","dis":"苏州桥","brdId":24745,"dealPrice":0.0,"referencePrice":80.0,"showCount":0,"id":86,"follow":0},{"nm":"大地影院(西三旗物美店)","preferential":0,"sellPrice":39.0,"poiId":4845675,"ct":"","sellmin":0,"sell":true,"addr":"海淀区悦秀路99号二层","area":"海淀区","lat":40.04733,"lng":116.33703,"deal":0,"distance":0,"imax":0,"brd":"大地影院","dis":"","brdId":384262,"dealPrice":0.0,"referencePrice":0.0,"showCount":0,"id":7433,"follow":0},{"nm":"国图影院","preferential":0,"sellPrice":33.0,"poiId":271442,"ct":"","sellmin":0,"sell":true,"addr":"海淀区中关村南大街33号国家图书馆内","area":"海淀区","lat":39.94304,"lng":116.32312,"deal":0,"distance":0,"imax":0,"brd":"其它","dis":"魏公村","brdId":0,"dealPrice":0.0,"referencePrice":60.0,"showCount":0,"id":238,"follow":0},{"nm":"海淀工人文化宫","preferential":0,"sellPrice":23.0,"poiId":38025,"ct":"","sellmin":0,"sell":true,"addr":"海淀区万柳华府北街2号（万柳华联商城南门对面）","area":"海淀区","lat":39.971443,"lng":116.295105,"deal":0,"distance":0,"imax":0,"brd":"其它","dis":"苏州桥","brdId":0,"dealPrice":0.0,"referencePrice":30.0,"showCount":0,"id":141,"follow":0},{"nm":"海淀剧院","preferential":0,"sellPrice":38.0,"poiId":17899,"ct":"","sellmin":0,"sell":true,"addr":"海淀区中关村大街28号","area":"海淀区","lat":39.97669,"lng":116.31822,"deal":0,"distance":0,"imax":0,"brd":"其它","dis":"中关村","brdId":0,"dealPrice":0.0,"referencePrice":80.0,"showCount":0,"id":257,"follow":0},{"nm":"嘉华国际影城(学清路店)","preferential":0,"sellPrice":39.0,"poiId":84440,"ct":"","sellmin":0,"sell":true,"addr":"海淀区学清路甲8号圣熙8号购物中心5层西侧（学清路）","area":"海淀区","lat":40.008587,"lng":116.35387,"deal":0,"distance":0,"imax":0,"brd":"嘉华国际影城","dis":"五道口","brdId":26413,"dealPrice":0.0,"referencePrice":70.0,"showCount":0,"id":70,"follow":0},{"nm":"金逸影城(新都店)","preferential":0,"sellPrice":23.5,"poiId":1549060,"ct":"","sellmin":0,"sell":true,"addr":"海淀区西三旗建材城中路6号新都购物广场1层","area":"海淀区","lat":40.060005,"lng":116.36541,"deal":0,"distance":0,"imax":0,"brd":"金逸影城","dis":"清河","brdId":1079568,"dealPrice":0.0,"referencePrice":60.0,"showCount":0,"id":58,"follow":0},{"nm":"金逸影城(中关村店)","preferential":0,"sellPrice":53.5,"poiId":276722,"ct":"","sellmin":0,"sell":true,"addr":"海淀区中关村大街19号新中关购物中心B1层","area":"海淀区","lat":39.978382,"lng":116.31445,"deal":0,"distance":0,"imax":0,"brd":"金逸影城","dis":"中关村","brdId":1079568,"dealPrice":0.0,"referencePrice":80.0,"showCount":0,"id":152,"follow":0},{"nm":"美嘉欢乐影城(中关村店)","preferential":0,"sellPrice":49.0,"poiId":279439,"ct":"","sellmin":0,"sell":true,"addr":"海淀区中关村大街15号中关村广场购物中心津乐汇3楼（地铁中关村站D口出西侧）","area":"海淀区","lat":39.983105,"lng":116.31355,"deal":0,"distance":0,"imax":0,"brd":"美嘉欢乐影城","dis":"三里屯","brdId":27617,"dealPrice":0.0,"referencePrice":80.0,"showCount":0,"id":197,"follow":0},{"nm":"魔影国际影城(金源店)","preferential":0,"sellPrice":28.0,"poiId":156803662,"ct":"","sellmin":0,"sell":true,"addr":"海淀区远大路1号院B座五楼西侧001号（居然之家材料馆楼上）","area":"海淀区","lat":39.960518,"lng":116.28797,"deal":0,"distance":0,"imax":0,"brd":"其它","dis":"","brdId":0,"dealPrice":0.0,"referencePrice":0.0,"showCount":0,"id":17304,"follow":0},{"nm":"世茂国际影城(羊坊店路店)","preferential":0,"sellPrice":28.0,"poiId":3251410,"ct":"","sellmin":0,"sell":true,"addr":"海淀区羊坊店路18号光耀东方4层","area":"海淀区","lat":39.900352,"lng":116.322586,"deal":0,"distance":0,"imax":0,"brd":"世茂国际影城","dis":"","brdId":28741,"dealPrice":0.0,"referencePrice":0.0,"showCount":0,"id":6483,"follow":0},{"nm":"天幕新彩云国际影城","preferential":0,"sellPrice":23.0,"poiId":4480546,"ct":"","sellmin":0,"sell":true,"addr":"海淀区北三环中路中视云投大厦","area":"海淀区","lat":39.969345,"lng":116.3678,"deal":0,"distance":0,"imax":0,"brd":"其它","dis":"","brdId":0,"dealPrice":0.0,"referencePrice":0.0,"showCount":0,"id":13003,"follow":0},{"nm":"五道口工人俱乐部电影院","preferential":0,"sellPrice":33.0,"poiId":82591,"ct":"","sellmin":0,"sell":true,"addr":"海淀区成府路23号（近五道口城铁站）","area":"海淀区","lat":39.99351,"lng":116.33939,"deal":0,"distance":0,"imax":0,"brd":"其它","dis":"五道口","brdId":0,"dealPrice":0.0,"referencePrice":35.0,"showCount":0,"id":258,"follow":0},{"nm":"万画影城(四季青店)","preferential":0,"sellPrice":28.0,"poiId":41066531,"ct":"","sellmin":0,"sell":true,"addr":"海淀区西四环北路金四季购物中心中段三层B003","area":"海淀区","lat":39.94469,"lng":116.27137,"deal":0,"distance":0,"imax":0,"brd":"其它","dis":"","brdId":0,"dealPrice":0.0,"referencePrice":0.0,"showCount":0,"id":13054,"follow":0},{"nm":"万画影城(田村店)","preferential":0,"sellPrice":29.0,"poiId":97764971,"ct":"","sellmin":0,"sell":true,"addr":"海淀区田村路43号京粮广场二层北侧","area":"海淀区","lat":39.93043,"lng":116.2541,"deal":0,"distance":0,"imax":0,"brd":"其它","dis":"","brdId":0,"dealPrice":0.0,"referencePrice":0.0,"showCount":0,"id":16821,"follow":0},{"nm":"完美世界影城(17.5今日店)","preferential":0,"sellPrice":39.0,"poiId":3260713,"ct":"","sellmin":0,"sell":true,"addr":"海淀区西翠路5号今日家园8号楼苏宁电器地下一层（太平路沃尔玛超市旁）","area":"海淀区","lat":39.900616,"lng":116.28245,"deal":0,"distance":0,"imax":0,"brd":"17.5影城","dis":"五棵松","brdId":23854,"dealPrice":0.0,"referencePrice":70.0,"showCount":0,"id":102,"follow":0},{"nm":"完美世界影城(17.5四道口店)","preferential":0,"sellPrice":39.0,"poiId":48958,"ct":"","sellmin":0,"sell":true,"addr":"海淀区大钟寺四道口2号京果商厦B座三层北侧","area":"海淀区","lat":39.959427,"lng":116.34575,"deal":0,"distance":0,"imax":0,"brd":"其它","dis":"北下关","brdId":0,"dealPrice":0.0,"referencePrice":45.0,"showCount":0,"id":25,"follow":0},{"nm":"新华国际影城(宝盛店)","preferential":0,"sellPrice":28.0,"poiId":2408760,"ct":"","sellmin":0,"sell":true,"addr":"海淀区宝盛北里西区28号兴美生活广场5层","area":"海淀区","lat":40.037056,"lng":116.370605,"deal":0,"distance":0,"imax":0,"brd":"新华国际影城","dis":"","brdId":29894,"dealPrice":0.0,"referencePrice":70.0,"showCount":0,"id":5359,"follow":0},{"nm":"新华国际影城(大钟寺店)","preferential":0,"sellPrice":28.0,"poiId":1524564,"ct":"","sellmin":0,"sell":true,"addr":"海淀区北三环18号院大钟寺中坤广场C座3层（地铁13号线大钟寺站出站即到）","area":"海淀区","lat":39.96573,"lng":116.34114,"deal":0,"distance":0,"imax":0,"brd":"新华国际影城","dis":"大钟寺","brdId":29894,"dealPrice":0.0,"referencePrice":80.0,"showCount":0,"id":1589,"follow":0},{"nm":"星美国际影城(金源店)","preferential":0,"sellPrice":52.0,"poiId":271447,"ct":"","sellmin":0,"sell":true,"addr":"海淀区远大路1号金源时代购物中心5楼东首（近蓝靛厂北路）","area":"海淀区","lat":39.95867,"lng":116.2889,"deal":0,"distance":0,"imax":0,"brd":"星美国际影城","dis":"远大路","brdId":30032,"dealPrice":0.0,"referencePrice":35.0,"showCount":0,"id":271,"follow":0},{"nm":"耀莱成龙国际影城(五棵松店)","preferential":0,"sellPrice":33.0,"poiId":335220,"ct":"","sellmin":0,"sell":true,"addr":"海淀区复兴路69号卓展购物中心5层（五棵松体育馆北门正对面）","area":"海淀区","lat":39.913418,"lng":116.2794,"deal":0,"distance":0,"imax":0,"brd":"耀莱成龙国际影城","dis":"五棵松","brdId":30227,"dealPrice":0.0,"referencePrice":70.0,"showCount":0,"id":87,"follow":0},{"nm":"耀莱成龙国际影城(温泉镇店)","preferential":0,"sellPrice":38.0,"poiId":116256540,"ct":"","sellmin":0,"sell":true,"addr":"海淀区温泉镇北部文化中心D座","area":"海淀区","lat":40.042526,"lng":116.18892,"deal":0,"distance":0,"imax":0,"brd":"耀莱成龙国际影城","dis":"","brdId":30227,"dealPrice":0.0,"referencePrice":0.0,"showCount":0,"id":16285,"follow":0},{"nm":"中间影院","preferential":0,"sellPrice":18.0,"poiId":4572438,"ct":"","sellmin":0,"sell":true,"addr":"海淀区杏石口路中间艺术园区内","area":"海淀区","lat":39.954147,"lng":116.23201,"deal":0,"distance":0,"imax":0,"brd":"其它","dis":"","brdId":0,"dealPrice":0.0,"referencePrice":0.0,"showCount":0,"id":9459,"follow":0},{"nm":"中影电影院(小西天店)","preferential":0,"sellPrice":29.0,"poiId":82594,"ct":"","sellmin":0,"sell":true,"addr":"海淀区新街口外大街25号（小西天牌楼北侧）","area":"海淀区","lat":39.95296,"lng":116.37117,"deal":0,"distance":0,"imax":0,"brd":"中影国际影城","dis":"","brdId":23745,"dealPrice":0.0,"referencePrice":0.0,"showCount":0,"id":9916,"follow":0},{"nm":"国安剧院","preferential":0,"sellPrice":31.0,"poiId":294883,"ct":"","sellmin":0,"sell":false,"addr":"海淀区花园东路甲16号","area":"海淀区","lat":39.981472,"lng":116.37021,"deal":0,"distance":0,"imax":0,"brd":"其它","dis":"北太平庄","brdId":0,"dealPrice":0.0,"referencePrice":80.0,"showCount":0,"id":251,"follow":0},{"nm":"华影国际影城(花园路店)","preferential":0,"sellPrice":0.0,"poiId":4744457,"ct":"","sellmin":0,"sell":false,"addr":"海淀区花园路甲13号庚坊国际发展中心B1层","area":"海淀区","lat":39.972046,"lng":116.36422,"deal":0,"distance":0,"imax":0,"brd":"华影国际影城","dis":"","brdId":271399,"dealPrice":0.0,"referencePrice":0.0,"showCount":0,"id":7985,"follow":0},{"nm":"中国电影资料馆","preferential":0,"sellPrice":33.0,"poiId":1541424,"ct":"","sellmin":0,"sell":false,"addr":"海淀区文慧园路3号","area":"海淀区","lat":39.953133,"lng":116.36986,"deal":0,"distance":0,"imax":0,"brd":"其它","dis":"新街口","brdId":0,"dealPrice":0.0,"referencePrice":0.0,"showCount":0,"id":2010,"follow":0}],"丰台区":[{"nm":"DMG国际影城(悦秀店)","preferential":0,"sellPrice":29.0,"poiId":94444126,"ct":"","sellmin":0,"sell":true,"addr":"丰台区开阳路8号悦秀城6层","area":"丰台区","lat":39.868313,"lng":116.375984,"deal":0,"distance":0,"imax":0,"brd":"其它","dis":"","brdId":0,"dealPrice":0.0,"referencePrice":0.0,"showCount":0,"id":15859,"follow":0},{"nm":"保利国际影城(凯德MALL·大峡谷店)","preferential":0,"sellPrice":39.0,"poiId":339944,"ct":"","sellmin":0,"sell":true,"addr":"丰台区南三环西路16号凯德大峡谷购物中心5楼","area":"丰台区","lat":39.854645,"lng":116.36706,"deal":0,"distance":0,"imax":0,"brd":"保利国际影城","dis":"草桥","brdId":24472,"dealPrice":0.0,"referencePrice":40.0,"showCount":0,"id":42,"follow":0},{"nm":"保利国际影城(万源店)","preferential":0,"sellPrice":29.0,"poiId":299479,"ct":"","sellmin":0,"sell":true,"addr":"丰台区东高地万源西里航天万源广场5层","area":"丰台区","lat":39.80296,"lng":116.423454,"deal":0,"distance":0,"imax":0,"brd":"保利国际影城","dis":"东高地","brdId":24472,"dealPrice":0.0,"referencePrice":70.0,"showCount":0,"id":129,"follow":0},{"nm":"博纳国际影城(方庄店)","preferential":0,"sellPrice":24.0,"poiId":82556,"ct":"","sellmin":0,"sell":true,"addr":"丰台区蒲黄榆路28号（地铁5号线、14号线C出口）","area":"丰台区","lat":39.863983,"lng":116.42227,"deal":0,"distance":0,"imax":0,"brd":"博纳国际影城","dis":"方庄","brdId":24595,"dealPrice":0.0,"referencePrice":80.0,"showCount":0,"id":43,"follow":0},{"nm":"大地影院(大红门合生广场店)","preferential":0,"sellPrice":34.0,"poiId":78978010,"ct":"","sellmin":0,"sell":true,"addr":"丰台区果园8号楼（木樨园桥西南角）合生广场6层","area":"丰台区","lat":39.85595,"lng":116.397896,"deal":0,"distance":0,"imax":0,"brd":"大地影院","dis":"","brdId":384262,"dealPrice":0.0,"referencePrice":0.0,"showCount":0,"id":15070,"follow":0},{"nm":"东融国际影城(草桥店)","preferential":0,"sellPrice":23.0,"poiId":113165716,"ct":"","sellmin":0,"sell":true,"addr":"丰台区草桥东路1号上品折扣3层","area":"丰台区","lat":39.850945,"lng":116.35827,"deal":0,"distance":0,"imax":0,"brd":"其它","dis":"","brdId":0,"dealPrice":0.0,"referencePrice":0.0,"showCount":0,"id":16458,"follow":0},{"nm":"泛影城(京港城店)","preferential":0,"sellPrice":23.0,"poiId":156648558,"ct":"","sellmin":0,"sell":true,"addr":"丰台区光彩路京港城生活广场6楼（京深海鲜市场对面）","area":"丰台区","lat":39.84058,"lng":116.41453,"deal":0,"distance":0,"imax":0,"brd":"其它","dis":"","brdId":0,"dealPrice":0.0,"referencePrice":0.0,"showCount":0,"id":17280,"follow":0},{"nm":"恒业国际影城(六里桥IMAX店)","preferential":0,"sellPrice":38.0,"poiId":133660718,"ct":"","sellmin":0,"sell":true,"addr":"丰台区万丰路（地铁9号线、10号线六里桥站）银座和谐广场购物中心5F","area":"丰台区","lat":39.882183,"lng":116.29706,"deal":0,"distance":0,"imax":0,"brd":"其它","dis":"","brdId":0,"dealPrice":0.0,"referencePrice":0.0,"showCount":0,"id":16638,"follow":0},{"nm":"华谊兄弟影院(洋桥店)","preferential":0,"sellPrice":39.0,"poiId":1547150,"ct":"","sellmin":0,"sell":true,"addr":"丰台区马家堡东路101号院10号银泰百货6层","area":"丰台区","lat":39.84446,"lng":116.38594,"deal":0,"distance":0,"imax":1,"brd":"华谊兄弟影院","dis":"","brdId":275830,"dealPrice":0.0,"referencePrice":80.0,"showCount":0,"id":2548,"follow":0},{"nm":"莱纳恒泰影城","preferential":0,"sellPrice":33.0,"poiId":125611088,"ct":"","sellmin":0,"sell":true,"addr":"丰台区丰台北路18号恒泰广场E座6层","area":"丰台区","lat":39.86612,"lng":116.304565,"deal":0,"distance":0,"imax":0,"brd":"其它","dis":"","brdId":0,"dealPrice":0.0,"referencePrice":0.0,"showCount":0,"id":16683,"follow":0},{"nm":"青少年剧场","preferential":0,"sellPrice":33.0,"poiId":271414,"ct":"","sellmin":0,"sell":true,"addr":"丰台区西四环南路86号","area":"丰台区","lat":39.851784,"lng":116.28421,"deal":0,"distance":0,"imax":0,"brd":"其它","dis":"","brdId":0,"dealPrice":0.0,"referencePrice":0.0,"showCount":0,"id":4542,"follow":0},{"nm":"万达影城(丰台店)","preferential":0,"sellPrice":28.0,"poiId":122443680,"ct":"","sellmin":0,"sell":true,"addr":"丰台区丰科路6号万达广场6层","area":"丰台区","lat":39.824207,"lng":116.29894,"deal":0,"distance":0,"imax":0,"brd":"万达影城","dis":"","brdId":102642,"dealPrice":0.0,"referencePrice":0.0,"showCount":0,"id":16655,"follow":0},{"nm":"万达影城(槐房店)","preferential":0,"sellPrice":28.0,"poiId":131412291,"ct":"","sellmin":0,"sell":true,"addr":"丰台区槐房南路6号院万达广场4层","area":"丰台区","lat":39.81384,"lng":116.36806,"deal":0,"distance":0,"imax":1,"brd":"万达影城","dis":"","brdId":102642,"dealPrice":0.0,"referencePrice":0.0,"showCount":0,"id":16657,"follow":0},{"nm":"星美国际影城(分钟寺店)","preferential":0,"sellPrice":39.0,"poiId":1436294,"ct":"","sellmin":0,"sell":true,"addr":"丰台区南三环东路成寿寺路2号新业广场2楼","area":"丰台区","lat":39.857136,"lng":116.44611,"deal":0,"distance":0,"imax":0,"brd":"星美国际影城","dis":"方庄","brdId":30032,"dealPrice":0.0,"referencePrice":35.0,"showCount":0,"id":9,"follow":0},{"nm":"正华影城","preferential":0,"sellPrice":35.0,"poiId":82600,"ct":"","sellmin":0,"sell":true,"addr":"丰台区宋家庄顺八条4号政馨园三区5号楼底商正华商城地下一层","area":"丰台区","lat":39.845528,"lng":116.43179,"deal":0,"distance":0,"imax":0,"brd":"正华影城","dis":"方庄","brdId":677942,"dealPrice":0.0,"referencePrice":60.0,"showCount":0,"id":63,"follow":0},{"nm":"中影国际影城(丰台千禧街店)","preferential":0,"sellPrice":31.0,"poiId":6458108,"ct":"","sellmin":0,"sell":true,"addr":"丰台区靛场路千禧商业街4号楼","area":"丰台区","lat":39.889786,"lng":116.287766,"deal":0,"distance":0,"imax":0,"brd":"中影国际影城","dis":"","brdId":23745,"dealPrice":0.0,"referencePrice":30.0,"showCount":0,"id":7634,"follow":0},{"nm":"中影国际影城(丰台永旺店)","preferential":0,"sellPrice":31.0,"poiId":77423086,"ct":"","sellmin":0,"sell":true,"addr":"丰台区丰葆路永旺梦乐城4层","area":"丰台区","lat":39.817265,"lng":116.292496,"deal":0,"distance":0,"imax":0,"brd":"中影国际影城","dis":"","brdId":23745,"dealPrice":0.0,"referencePrice":0.0,"showCount":0,"id":14384,"follow":0},{"nm":"中影国际影城(石榴中心店)","preferential":0,"sellPrice":29.0,"poiId":150259374,"ct":"","sellmin":0,"sell":true,"addr":"丰台区榴乡路88号院石榴中心斯坦福广场B1层","area":"丰台区","lat":39.84191,"lng":116.423386,"deal":0,"distance":0,"imax":0,"brd":"中影国际影城","dis":"","brdId":23745,"dealPrice":0.0,"referencePrice":0.0,"showCount":0,"id":16832,"follow":0},{"nm":"幸福蓝海国际影城(北京公益桥店)","preferential":0,"sellPrice":31.0,"poiId":5161700,"ct":"","sellmin":0,"sell":false,"addr":"丰台区角门路19号院2号楼华冠天地4层（原大万广场）","area":"丰台区","lat":39.836674,"lng":116.37848,"deal":0,"distance":0,"imax":0,"brd":"幸福蓝海国际影城","dis":"","brdId":30053,"dealPrice":0.0,"referencePrice":0.0,"showCount":0,"id":8578,"follow":0}],"东城区":[{"nm":"UME国际影城(安贞店)","preferential":0,"sellPrice":39.5,"poiId":94496,"ct":"","sellmin":0,"sell":true,"addr":"东城区北三环安贞桥环球贸易中心E座","area":"东城区","lat":39.966072,"lng":116.41096,"deal":0,"distance":0,"imax":0,"brd":"UME国际影城","dis":"安贞","brdId":24071,"dealPrice":0.0,"referencePrice":70.0,"showCount":0,"id":99,"follow":0},{"nm":"百丽宫影城(金宝汇店)","preferential":0,"sellPrice":34.0,"poiId":1076058,"ct":"","sellmin":0,"sell":true,"addr":"东城区金宝街88号金宝汇7层","area":"东城区","lat":39.9152,"lng":116.42129,"deal":0,"distance":0,"imax":0,"brd":"百老汇影城","dis":"王府井","brdId":24377,"dealPrice":0.0,"referencePrice":80.0,"showCount":0,"id":122,"follow":0},{"nm":"百老汇电影中心(万国城店)","preferential":0,"sellPrice":34.0,"poiId":1076062,"ct":"","sellmin":0,"sell":true,"addr":"东城区香河园路1号当代MOMA北区T4座","area":"东城区","lat":39.950455,"lng":116.43878,"deal":0,"distance":0,"imax":0,"brd":"百老汇影城","dis":"东直门","brdId":24377,"dealPrice":0.0,"referencePrice":80.0,"showCount":0,"id":94,"follow":0},{"nm":"百老汇影城(apm购物中心店)","preferential":0,"sellPrice":34.0,"poiId":271444,"ct":"","sellmin":0,"sell":true,"addr":"东城区王府井大街138号北京apm6层","area":"东城区","lat":39.914005,"lng":116.41193,"deal":0,"distance":0,"imax":0,"brd":"百老汇影城","dis":"王府井","brdId":24377,"dealPrice":0.0,"referencePrice":70.0,"showCount":0,"id":267,"follow":0},{"nm":"百老汇影城(东方广场店)","preferential":0,"sellPrice":34.0,"poiId":271409,"ct":"","sellmin":0,"sell":true,"addr":"东城区东长安街1号东方广场地下1层","area":"东城区","lat":39.909454,"lng":116.411934,"deal":0,"distance":0,"imax":0,"brd":"百老汇影城","dis":"王府井","brdId":24377,"dealPrice":0.0,"referencePrice":40.0,"showCount":0,"id":269,"follow":0},{"nm":"百老汇影城(国瑞购物中心店)","preferential":0,"sellPrice":44.0,"poiId":1048975,"ct":"","sellmin":0,"sell":true,"addr":"东城区崇文门外大街18号国瑞城购物中心首层/-2层","area":"东城区","lat":39.897575,"lng":116.420135,"deal":0,"distance":0,"imax":0,"brd":"百老汇影城","dis":"崇文门","brdId":24377,"dealPrice":0.0,"referencePrice":80.0,"showCount":0,"id":119,"follow":0},{"nm":"传奇奢华影城","preferential":0,"sellPrice":43.0,"poiId":1460422,"ct":"","sellmin":0,"sell":true,"addr":"东城区东打磨厂街7号新活馆B1层","area":"东城区","lat":39.89956,"lng":116.41363,"deal":0,"distance":0,"imax":0,"brd":"传奇时代影城","dis":"","brdId":24804,"dealPrice":0.0,"referencePrice":0.0,"showCount":0,"id":16605,"follow":0},{"nm":"东宫影剧院","preferential":0,"sellPrice":31.0,"poiId":60166,"ct":"","sellmin":0,"sell":true,"addr":"东城区隆福寺街47号东四工人文化宫","area":"东城区","lat":39.9253,"lng":116.41552,"deal":0,"distance":0,"imax":0,"brd":"东宫影剧院","dis":"东四","brdId":125212,"dealPrice":0.0,"referencePrice":30.0,"showCount":0,"id":242,"follow":0},{"nm":"东环影城","preferential":0,"sellPrice":38.0,"poiId":43786,"ct":"","sellmin":0,"sell":true,"addr":"东城区东中街9号东环广场B座B1楼","area":"东城区","lat":39.936527,"lng":116.43607,"deal":0,"distance":0,"imax":0,"brd":"东环影城","dis":"东直门","brdId":25181,"dealPrice":0.0,"referencePrice":80.0,"showCount":0,"id":265,"follow":0},{"nm":"横店电影城(王府井店)","preferential":0,"sellPrice":29.0,"poiId":1549949,"ct":"","sellmin":0,"sell":true,"addr":"东城区王府井大街251-253号8层","area":"东城区","lat":39.913864,"lng":116.41057,"deal":0,"distance":0,"imax":0,"brd":"横店电影城","dis":"王府井","brdId":26045,"dealPrice":0.0,"referencePrice":70.0,"showCount":0,"id":79,"follow":0},{"nm":"青春光线电影院","preferential":0,"sellPrice":38.0,"poiId":99389254,"ct":"","sellmin":0,"sell":true,"addr":"东城区东滨河路乙一号雍和航星园内","area":"东城区","lat":39.95059,"lng":116.42174,"deal":0,"distance":0,"imax":0,"brd":"其它","dis":"","brdId":0,"dealPrice":0.0,"referencePrice":0.0,"showCount":0,"id":15280,"follow":0},{"nm":"搜秀影城","preferential":0,"sellPrice":38.0,"poiId":82579,"ct":"","sellmin":0,"sell":true,"addr":"东城区崇外大街40号搜秀城9层","area":"东城区","lat":39.896397,"lng":116.419266,"deal":0,"distance":0,"imax":0,"brd":"搜秀影城","dis":"崇文门","brdId":28916,"dealPrice":0.0,"referencePrice":80.0,"showCount":0,"id":270,"follow":0},{"nm":"耀莱成龙国际影城(王府井店)","preferential":0,"sellPrice":38.0,"poiId":6074394,"ct":"","sellmin":0,"sell":true,"addr":"东城区王府井大街301号新燕莎购物中心地下一层西侧（地铁一号线王府井站出C2口向北步行200米路西）","area":"东城区","lat":39.90959,"lng":116.41121,"deal":0,"distance":0,"imax":0,"brd":"耀莱成龙国际影城","dis":"","brdId":30227,"dealPrice":0.0,"referencePrice":0.0,"showCount":0,"id":10781,"follow":0},{"nm":"北京站电影院","preferential":0,"sellPrice":0.0,"poiId":52795616,"ct":"","sellmin":0,"sell":false,"addr":"东城区毛家湾胡同甲13号站西侧3层","area":"东城区","lat":39.903954,"lng":116.4272,"deal":0,"distance":0,"imax":0,"brd":"其它","dis":"","brdId":0,"dealPrice":0.0,"referencePrice":0.0,"showCount":0,"id":14472,"follow":0},{"nm":"东城图书馆影剧院","preferential":0,"sellPrice":0.0,"poiId":271413,"ct":"","sellmin":0,"sell":false,"addr":"东城区交道口东大街85号区图书馆1楼","area":"东城区","lat":39.941,"lng":116.413,"deal":0,"distance":0,"imax":0,"brd":"其它","dis":"东四","brdId":0,"dealPrice":0.0,"referencePrice":0.0,"showCount":0,"id":4541,"follow":0}],"大兴区":[{"nm":"CGV星聚汇影城(亦庄店)","preferential":0,"sellPrice":29.0,"poiId":105355906,"ct":"","sellmin":0,"sell":true,"addr":"大兴区经济技术开发区荣京东街大族广场9号楼三层","area":"大兴区","lat":39.790707,"lng":116.51294,"deal":0,"distance":0,"imax":0,"brd":"CGV影城","dis":"","brdId":2020418,"dealPrice":0.0,"referencePrice":0.0,"showCount":0,"id":16152,"follow":0},{"nm":"SFC上影影城(大兴龙湖店)","preferential":0,"sellPrice":34.0,"poiId":96251713,"ct":"","sellmin":0,"sell":true,"addr":"大兴区永兴路7号院1号楼3F-Z2","area":"大兴区","lat":39.687492,"lng":116.3205,"deal":0,"distance":0,"imax":1,"brd":"SFC上影影城","dis":"","brdId":2880988,"dealPrice":0.0,"referencePrice":0.0,"showCount":0,"id":15915,"follow":0},{"nm":"保利国际影城(绿地缤纷城店)","preferential":0,"sellPrice":34.0,"poiId":1481117,"ct":"","sellmin":0,"sell":true,"addr":"大兴区金星西路3号绿地缤纷城购物中心4层","area":"大兴区","lat":39.764736,"lng":116.33353,"deal":0,"distance":0,"imax":0,"brd":"保利国际影城","dis":"绿地缤纷城","brdId":24472,"dealPrice":0.0,"referencePrice":70.0,"showCount":0,"id":2392,"follow":0},{"nm":"大料国际影城(创意生活广场店)","preferential":0,"sellPrice":23.0,"poiId":82601,"ct":"","sellmin":0,"sell":true,"addr":"大兴区亦庄经济开发区文化园东路6号创意生活广场三层","area":"大兴区","lat":39.81155,"lng":116.50709,"deal":0,"distance":0,"imax":0,"brd":"大料国际影城","dis":"亦庄","brdId":24930,"dealPrice":0.0,"referencePrice":80.0,"showCount":0,"id":34,"follow":0},{"nm":"大兴影剧院","preferential":0,"sellPrice":33.0,"poiId":324698,"ct":"","sellmin":0,"sell":true,"addr":"大兴区黄村西大街15号","area":"大兴区","lat":39.7323,"lng":116.338005,"deal":0,"distance":0,"imax":0,"brd":"大兴剧院","dis":"黄村","brdId":381835,"dealPrice":0.0,"referencePrice":21.0,"showCount":0,"id":179,"follow":0},{"nm":"嘉美国际影城(旧宫店)","preferential":0,"sellPrice":23.0,"poiId":6685358,"ct":"","sellmin":0,"sell":true,"addr":"大兴区旧宫小红门路39号","area":"大兴区","lat":39.814774,"lng":116.454636,"deal":0,"distance":0,"imax":0,"brd":"嘉美国际影城","dis":"","brdId":352923,"dealPrice":0.0,"referencePrice":70.0,"showCount":0,"id":2598,"follow":0},{"nm":"金逸影城(荟聚IMAX店)","preferential":0,"sellPrice":33.5,"poiId":40697227,"ct":"","sellmin":0,"sell":true,"addr":"大兴区欣宁街荟聚购物中心3层（地铁4号线西红门站A西出口站）","area":"大兴区","lat":39.78879,"lng":116.32654,"deal":0,"distance":0,"imax":1,"brd":"金逸影城","dis":"","brdId":1079568,"dealPrice":0.0,"referencePrice":0.0,"showCount":0,"id":10987,"follow":0},{"nm":"卢米埃影城(万科店)","preferential":0,"sellPrice":30.0,"poiId":93511270,"ct":"","sellmin":0,"sell":true,"addr":"大兴区忠凉路万科广场5层","area":"大兴区","lat":39.80576,"lng":116.460175,"deal":0,"distance":0,"imax":0,"brd":"卢米埃影城","dis":"","brdId":292030,"dealPrice":0.0,"referencePrice":0.0,"showCount":0,"id":15773,"follow":0},{"nm":"唐阁影城(亦庄店)","preferential":0,"sellPrice":29.0,"poiId":5165994,"ct":"","sellmin":0,"sell":true,"addr":"大兴区经济技术开发区荣华中路8号院华联力宝购物中心四层","area":"大兴区","lat":39.805244,"lng":116.50277,"deal":0,"distance":0,"imax":0,"brd":"其它","dis":"","brdId":0,"dealPrice":0.0,"referencePrice":0.0,"showCount":0,"id":11132,"follow":0},{"nm":"新华国际影城(大兴店)","preferential":0,"sellPrice":33.0,"poiId":86394,"ct":"","sellmin":0,"sell":true,"addr":"大兴区黄村东大街火神庙国际商业中心E座5层","area":"大兴区","lat":39.72971,"lng":116.34167,"deal":0,"distance":0,"imax":0,"brd":"新华国际影城","dis":"黄村","brdId":29894,"dealPrice":0.0,"referencePrice":40.0,"showCount":0,"id":11,"follow":0},{"nm":"星美国际影城(西红门店)","preferential":0,"sellPrice":34.0,"poiId":2490890,"ct":"","sellmin":0,"sell":true,"addr":"大兴区西红门镇京良路10号乐家购物中心B区3层","area":"大兴区","lat":39.799633,"lng":116.33217,"deal":0,"distance":0,"imax":0,"brd":"星美国际影城","dis":"","brdId":30032,"dealPrice":0.0,"referencePrice":70.0,"showCount":0,"id":6057,"follow":0},{"nm":"耀莱成龙国际影城(西红门店)","preferential":0,"sellPrice":38.0,"poiId":41278576,"ct":"","sellmin":0,"sell":true,"addr":"大兴区欣旺北大街8号鸿坤广场6层（地铁4号线西红门站Ｂ口向东４００米路北）","area":"大兴区","lat":39.791393,"lng":116.340256,"deal":0,"distance":0,"imax":0,"brd":"耀莱成龙国际影城","dis":"","brdId":30227,"dealPrice":0.0,"referencePrice":0.0,"showCount":0,"id":11082,"follow":0},{"nm":"中传国际影城(亦庄店)","preferential":0,"sellPrice":33.0,"poiId":93839693,"ct":"","sellmin":0,"sell":true,"addr":"大兴区经济技术开发区科创五街38号C座3层F3-C3006","area":"大兴区","lat":39.803543,"lng":116.53282,"deal":0,"distance":0,"imax":0,"brd":"其它","dis":"","brdId":0,"dealPrice":0.0,"referencePrice":0.0,"showCount":0,"id":15294,"follow":0},{"nm":"最影城","preferential":0,"sellPrice":28.0,"poiId":95968537,"ct":"","sellmin":0,"sell":true,"addr":"大兴区兴华大街百联清城购物中心3层北侧","area":"大兴区","lat":39.73894,"lng":116.33174,"deal":0,"distance":0,"imax":0,"brd":"其它","dis":"","brdId":0,"dealPrice":0.0,"referencePrice":0.0,"showCount":0,"id":15018,"follow":0},{"nm":"玫瑰之约汽车影院(半壁店)","preferential":0,"sellPrice":0.0,"poiId":51400779,"ct":"","sellmin":0,"sell":false,"addr":"大兴区东大路多维创新园内","area":"大兴区","lat":39.629345,"lng":116.38453,"deal":0,"distance":0,"imax":0,"brd":"其它","dis":"","brdId":0,"dealPrice":0.0,"referencePrice":0.0,"showCount":0,"id":14054,"follow":0}],"西城区":[{"nm":"保利国际影城(天安门店)","preferential":0,"sellPrice":34.0,"poiId":150609037,"ct":"","sellmin":0,"sell":true,"addr":"西城区前门煤市街北京坊C1区，B1\\B2层","area":"西城区","lat":39.89703,"lng":116.39432,"deal":0,"distance":0,"imax":0,"brd":"保利国际影城","dis":"","brdId":24472,"dealPrice":0.0,"referencePrice":0.0,"showCount":0,"id":17023,"follow":0},{"nm":"大观楼电影院","preferential":0,"sellPrice":34.0,"poiId":89010,"ct":"","sellmin":0,"sell":true,"addr":"西城区前门大街大栅栏街36号","area":"西城区","lat":39.895596,"lng":116.39515,"deal":0,"distance":0,"imax":0,"brd":"大观楼影城","dis":"大栅栏","brdId":392770,"dealPrice":0.0,"referencePrice":60.0,"showCount":0,"id":263,"follow":0},{"nm":"地质礼堂","preferential":0,"sellPrice":33.0,"poiId":89006,"ct":"","sellmin":0,"sell":true,"addr":"西城区西四羊肉胡同30号（中国地质博物馆南侧）","area":"西城区","lat":39.922535,"lng":116.371346,"deal":0,"distance":0,"imax":0,"brd":"地质礼堂","dis":"西四","brdId":368740,"dealPrice":0.0,"referencePrice":50.0,"showCount":0,"id":261,"follow":0},{"nm":"广安门电影院","preferential":0,"sellPrice":34.0,"poiId":82592,"ct":"","sellmin":0,"sell":true,"addr":"西城区白广路8号","area":"西城区","lat":39.88407,"lng":116.35917,"deal":0,"distance":0,"imax":0,"brd":"其它","dis":"广内大街","brdId":0,"dealPrice":0.0,"referencePrice":40.0,"showCount":0,"id":247,"follow":0},{"nm":"国宾菁英电影院","preferential":0,"sellPrice":33.0,"poiId":274294,"ct":"","sellmin":0,"sell":true,"addr":"西城区月坛南街24号（近万方商场）","area":"西城区","lat":39.913624,"lng":116.34325,"deal":0,"distance":0,"imax":0,"brd":"其它","dis":"月坛","brdId":0,"dealPrice":0.0,"referencePrice":40.0,"showCount":0,"id":255,"follow":0},{"nm":"工人俱乐部电影院","preferential":0,"sellPrice":33.0,"poiId":1436438,"ct":"","sellmin":0,"sell":true,"addr":"西城区虎坊路口南7号","area":"西城区","lat":39.888065,"lng":116.38378,"deal":0,"distance":0,"imax":0,"brd":"其它","dis":"虎坊桥","brdId":0,"dealPrice":0.0,"referencePrice":60.0,"showCount":0,"id":237,"follow":0},{"nm":"首都电影院(金融街店)","preferential":0,"sellPrice":44.0,"poiId":1541415,"ct":"","sellmin":0,"sell":true,"addr":"西城区金融大街18号地下一层","area":"西城区","lat":39.9151,"lng":116.36,"deal":0,"distance":0,"imax":0,"brd":"首都电影院","dis":"复兴门","brdId":1162239,"dealPrice":0.0,"referencePrice":80.0,"showCount":0,"id":1625,"follow":0},{"nm":"首都电影院(西单店)","preferential":0,"sellPrice":44.0,"poiId":283722,"ct":"","sellmin":0,"sell":true,"addr":"西城区西单北大街131号大悦城10楼（近西单苹果店）","area":"西城区","lat":39.91066,"lng":116.373665,"deal":0,"distance":0,"imax":0,"brd":"首都电影院","dis":"西单","brdId":1162239,"dealPrice":0.0,"referencePrice":60.0,"showCount":0,"id":149,"follow":0},{"nm":"首都电影院(中华店)","preferential":0,"sellPrice":39.0,"poiId":93439511,"ct":"","sellmin":0,"sell":true,"addr":"西城区天桥南大街3号楼一层、二层","area":"西城区","lat":39.884457,"lng":116.39819,"deal":0,"distance":0,"imax":0,"brd":"其它","dis":"","brdId":0,"dealPrice":0.0,"referencePrice":0.0,"showCount":0,"id":15270,"follow":0},{"nm":"耀莱成龙国际影城(马连道店)","preferential":0,"sellPrice":38.0,"poiId":2393654,"ct":"","sellmin":0,"sell":true,"addr":"西城区马连道路25号新年华生活购物广场5层","area":"西城区","lat":39.877544,"lng":116.32643,"deal":0,"distance":0,"imax":0,"brd":"耀莱成龙国际影城","dis":"","brdId":30227,"dealPrice":0.0,"referencePrice":70.0,"showCount":0,"id":5278,"follow":0},{"nm":"北京青年宫","preferential":0,"sellPrice":38.0,"poiId":271434,"ct":"","sellmin":0,"sell":false,"addr":"西城区西直门南小街68号","area":"西城区","lat":39.93531,"lng":116.35955,"deal":0,"distance":0,"imax":0,"brd":"其它","dis":"西直门","brdId":0,"dealPrice":0.0,"referencePrice":50.0,"showCount":0,"id":260,"follow":0},{"nm":"剧空间剧场","preferential":0,"sellPrice":0.0,"poiId":73944402,"ct":"","sellmin":0,"sell":false,"addr":"西城区新街口北大街74号（近北京科学教育电影制片厂院内）","area":"西城区","lat":39.94392,"lng":116.37328,"deal":0,"distance":0,"imax":0,"brd":"其它","dis":"","brdId":0,"dealPrice":0.0,"referencePrice":0.0,"showCount":0,"id":14387,"follow":0}],"通州区":[{"nm":"北京东融国际影城(月亮河店)","preferential":0,"sellPrice":33.0,"poiId":99968119,"ct":"","sellmin":0,"sell":true,"addr":"通州区永顺镇芙蓉园513号楼","area":"通州区","lat":39.919525,"lng":116.677376,"deal":0,"distance":0,"imax":0,"brd":"其它","dis":"","brdId":0,"dealPrice":0.0,"referencePrice":0.0,"showCount":0,"id":15421,"follow":0},{"nm":"博纳国际影城(通州北苑店)","preferential":0,"sellPrice":34.0,"poiId":363447,"ct":"","sellmin":0,"sell":true,"addr":"通州区杨庄北里52号华联天时名苑购物中心4楼（近通州北苑地铁站）","area":"通州区","lat":39.903496,"lng":116.6367,"deal":0,"distance":0,"imax":0,"brd":"博纳国际影城","dis":"新华联","brdId":24595,"dealPrice":0.0,"referencePrice":80.0,"showCount":0,"id":2,"follow":0},{"nm":"博纳国际影城(通州土桥店)","preferential":0,"sellPrice":33.0,"poiId":51455681,"ct":"","sellmin":0,"sell":true,"addr":"通州区八通线土桥地铁站向东900米华远好天地购物中心3层","area":"通州区","lat":39.86987,"lng":116.697586,"deal":0,"distance":0,"imax":0,"brd":"博纳国际影城","dis":"","brdId":24595,"dealPrice":0.0,"referencePrice":0.0,"showCount":0,"id":14381,"follow":0},{"nm":"百尚影城","preferential":0,"sellPrice":33.0,"poiId":2371476,"ct":"","sellmin":0,"sell":true,"addr":"通州区马驹桥镇百尚生活广场3楼","area":"通州区","lat":39.752598,"lng":116.54536,"deal":0,"distance":0,"imax":0,"brd":"百尚影城","dis":"","brdId":825664,"dealPrice":0.0,"referencePrice":0.0,"showCount":0,"id":6227,"follow":0},{"nm":"大地影院(米拉店)","preferential":0,"sellPrice":34.0,"poiId":6151046,"ct":"","sellmin":0,"sell":true,"addr":"通州区马驹桥新海东路1号（豪润生活广场7层）","area":"通州区","lat":39.760002,"lng":116.54555,"deal":0,"distance":0,"imax":0,"brd":"大地影院","dis":"","brdId":384262,"dealPrice":0.0,"referencePrice":0.0,"showCount":0,"id":8301,"follow":0},{"nm":"华夏天合国际影城","preferential":0,"sellPrice":33.0,"poiId":131682620,"ct":"","sellmin":0,"sell":true,"addr":"通州区台湖镇定海园二里15号楼新城商厦4层","area":"通州区","lat":39.799076,"lng":116.56583,"deal":0,"distance":0,"imax":0,"brd":"其它","dis":"","brdId":0,"dealPrice":0.0,"referencePrice":0.0,"showCount":0,"id":16680,"follow":0},{"nm":"米瑞酷影城(乔庄店)","preferential":0,"sellPrice":33.0,"poiId":4800806,"ct":"","sellmin":0,"sell":true,"addr":"通州区运河西大街乔庄卜蜂莲花超市一层","area":"通州区","lat":39.891575,"lng":116.68774,"deal":0,"distance":0,"imax":0,"brd":"其它","dis":"","brdId":0,"dealPrice":0.0,"referencePrice":0.0,"showCount":0,"id":8654,"follow":0},{"nm":"通州区电影院","preferential":0,"sellPrice":28.0,"poiId":82560,"ct":"","sellmin":0,"sell":true,"addr":"通州区西海子西塔胡同1号","area":"通州区","lat":39.912743,"lng":116.66441,"deal":0,"distance":0,"imax":0,"brd":"通州区电影院","dis":"德外大街","brdId":1041607,"dealPrice":0.0,"referencePrice":60.0,"showCount":0,"id":178,"follow":0},{"nm":"万达国际影城(通州万达店)","preferential":0,"sellPrice":43.0,"poiId":41521114,"ct":"","sellmin":0,"sell":true,"addr":"通州区新华西街58号万达广场1号楼5层（厨艺宾馆对面）","area":"通州区","lat":39.905937,"lng":116.64272,"deal":0,"distance":0,"imax":1,"brd":"万达影城","dis":"","brdId":102642,"dealPrice":0.0,"referencePrice":0.0,"showCount":0,"id":10837,"follow":0},{"nm":"耀莱成龙国际影城(临河里店)","preferential":0,"sellPrice":33.0,"poiId":92950934,"ct":"","sellmin":0,"sell":true,"addr":"通州区临河里33号楼华业玫瑰商业中心D2号楼三层","area":"通州区","lat":39.88119,"lng":116.68255,"deal":0,"distance":0,"imax":0,"brd":"耀莱成龙国际影城","dis":"","brdId":30227,"dealPrice":0.0,"referencePrice":0.0,"showCount":0,"id":14634,"follow":0},{"nm":"银兴菲林影城(通州店)","preferential":0,"sellPrice":38.0,"poiId":6139543,"ct":"","sellmin":0,"sell":true,"addr":"通州区翠景北里21号京通罗斯福广场5F","area":"通州区","lat":39.88967,"lng":116.659225,"deal":0,"distance":0,"imax":0,"brd":"其它","dis":"","brdId":0,"dealPrice":0.0,"referencePrice":0.0,"showCount":0,"id":10964,"follow":0}],"房山区":[{"nm":"DMG影城(良乡店)","preferential":0,"sellPrice":35.0,"poiId":5677585,"ct":"","sellmin":0,"sell":true,"addr":"房山区拱辰南大街瑞城广场7F","area":"房山区","lat":39.72994,"lng":116.14175,"deal":0,"distance":0,"imax":0,"brd":"其它","dis":"","brdId":0,"dealPrice":0.0,"referencePrice":0.0,"showCount":0,"id":16058,"follow":0},{"nm":"SFC上影影城(房山绿地店)","preferential":0,"sellPrice":34.0,"poiId":52294367,"ct":"","sellmin":0,"sell":true,"addr":"房山区黄辛庄路口绿地缤纷城3层","area":"房山区","lat":39.756683,"lng":116.160515,"deal":0,"distance":0,"imax":0,"brd":"SFC上影影城","dis":"","brdId":2880988,"dealPrice":0.0,"referencePrice":0.0,"showCount":0,"id":13618,"follow":0},{"nm":"环球国际影城","preferential":0,"sellPrice":33.0,"poiId":5252975,"ct":"","sellmin":0,"sell":true,"addr":"房山区兴房大街38号华冠欢乐城四楼","area":"房山区","lat":39.69285,"lng":115.98708,"deal":0,"distance":0,"imax":0,"brd":"其它","dis":"","brdId":0,"dealPrice":0.0,"referencePrice":0.0,"showCount":0,"id":9370,"follow":0},{"nm":"良乡影剧院","preferential":0,"sellPrice":28.0,"poiId":1436368,"ct":"","sellmin":0,"sell":true,"addr":"房山区良乡拱辰大街31号","area":"房山区","lat":39.73799,"lng":116.141685,"deal":0,"distance":0,"imax":0,"brd":"良乡影剧院","dis":"房山","brdId":949172,"dealPrice":0.0,"referencePrice":30.0,"showCount":0,"id":145,"follow":0},{"nm":"幸福蓝海国际影城(北京房山店)","preferential":0,"sellPrice":35.0,"poiId":40470614,"ct":"","sellmin":0,"sell":true,"addr":"房山区广阳新路9号院1号楼中粮万科半岛购物广场3层","area":"房山区","lat":39.753548,"lng":116.21099,"deal":0,"distance":0,"imax":0,"brd":"幸福蓝海国际影城","dis":"","brdId":30053,"dealPrice":0.0,"referencePrice":0.0,"showCount":0,"id":13028,"follow":0},{"nm":"新华国际影城(房山店)","preferential":0,"sellPrice":35.0,"poiId":299222,"ct":"","sellmin":0,"sell":true,"addr":"房山区良乡北关西路14号华冠购物中心五层","area":"房山区","lat":39.73469,"lng":116.13953,"deal":0,"distance":0,"imax":0,"brd":"新华国际影城","dis":"房山","brdId":29894,"dealPrice":0.0,"referencePrice":60.0,"showCount":0,"id":131,"follow":0},{"nm":"燕山影剧院","preferential":0,"sellPrice":29.0,"poiId":271449,"ct":"","sellmin":0,"sell":true,"addr":"房山区燕山岗南路3号","area":"房山区","lat":39.72787,"lng":115.96215,"deal":0,"distance":0,"imax":0,"brd":"燕山影剧院","dis":"房山","brdId":777439,"dealPrice":0.0,"referencePrice":35.0,"showCount":0,"id":60,"follow":0},{"nm":"北京燕山文化活动中心影院","preferential":0,"sellPrice":0.0,"poiId":99082156,"ct":"","sellmin":0,"sell":false,"addr":"房山区迎风街道岗南路9号","area":"房山区","lat":39.72558,"lng":115.96181,"deal":0,"distance":0,"imax":0,"brd":"其它","dis":"","brdId":0,"dealPrice":0.0,"referencePrice":0.0,"showCount":0,"id":15272,"follow":0},{"nm":"乐糖影城(房山店)","preferential":0,"sellPrice":0.0,"poiId":152404744,"ct":"","sellmin":0,"sell":false,"addr":"房山区长阳镇长政南街1号院1号楼","area":"房山区","lat":39.76338,"lng":116.213234,"deal":0,"distance":0,"imax":0,"brd":"其它","dis":"","brdId":0,"dealPrice":0.0,"referencePrice":0.0,"showCount":0,"id":17169,"follow":0}],"昌平区":[{"nm":"保利国际影城(龙旗广场店)","preferential":0,"sellPrice":39.0,"poiId":3320660,"ct":"","sellmin":0,"sell":true,"addr":"昌平区黄平路19号院3号楼龙旗广场购物中心3层（地铁8号线育新站路北600米，近永辉超市）","area":"昌平区","lat":40.066605,"lng":116.34672,"deal":0,"distance":0,"imax":0,"brd":"保利国际影城","dis":"回龙观","brdId":24472,"dealPrice":0.0,"referencePrice":100.0,"showCount":0,"id":5502,"follow":0},{"nm":"昌平保利影剧院(佳莲时代广场店)","preferential":0,"sellPrice":28.0,"poiId":361208,"ct":"","sellmin":0,"sell":true,"addr":"昌平区鼓楼南大街6号佳莲时代广场4楼（近鼓楼西街）","area":"昌平区","lat":40.223534,"lng":116.23402,"deal":0,"distance":0,"imax":0,"brd":"其它","dis":"昌平镇","brdId":0,"dealPrice":0.0,"referencePrice":80.0,"showCount":0,"id":50,"follow":0},{"nm":"大地影院(昌平菓岭店)","preferential":0,"sellPrice":29.0,"poiId":1432377,"ct":"","sellmin":0,"sell":true,"addr":"昌平区昌崔路203号果岭假日广场四楼","area":"昌平区","lat":40.222176,"lng":116.264755,"deal":0,"distance":0,"imax":0,"brd":"大地影院","dis":"昌平镇","brdId":384262,"dealPrice":0.0,"referencePrice":40.0,"showCount":0,"id":66,"follow":0},{"nm":"首都电影院(悦荟万科广场店)","preferential":0,"sellPrice":44.0,"poiId":373237,"ct":"","sellmin":0,"sell":true,"addr":"昌平区南环路10号院1号楼悦荟万科广场8层","area":"昌平区","lat":40.2124,"lng":116.24026,"deal":0,"distance":0,"imax":0,"brd":"首都电影院","dis":"","brdId":1162239,"dealPrice":0.0,"referencePrice":0.0,"showCount":0,"id":8186,"follow":0},{"nm":"万达国际影城(龙德广场店)","preferential":0,"sellPrice":43.0,"poiId":30864,"ct":"","sellmin":0,"sell":true,"addr":"昌平区立汤路186号龙德广场5层","area":"昌平区","lat":40.060596,"lng":116.41618,"deal":0,"distance":0,"imax":1,"brd":"万达影城","dis":"天通苑","brdId":102642,"dealPrice":0.0,"referencePrice":80.0,"showCount":0,"id":151,"follow":0},{"nm":"沃美影城(回龙观店)","preferential":0,"sellPrice":39.0,"poiId":4058821,"ct":"","sellmin":0,"sell":true,"addr":"昌平区回龙观同成街华联购物中心四楼（城铁回龙观站出口对面）","area":"昌平区","lat":40.071976,"lng":116.33717,"deal":0,"distance":0,"imax":0,"brd":"沃美影城","dis":"","brdId":29462,"dealPrice":0.0,"referencePrice":0.0,"showCount":0,"id":9647,"follow":0},{"nm":"星美国际影城(回龙观店)","preferential":0,"sellPrice":39.0,"poiId":286187,"ct":"","sellmin":0,"sell":true,"addr":"昌平区回龙观西大街111号华联商场3楼","area":"昌平区","lat":40.07596,"lng":116.31944,"deal":0,"distance":0,"imax":0,"brd":"星美国际影城","dis":"回龙观","brdId":30032,"dealPrice":0.0,"referencePrice":40.0,"showCount":0,"id":140,"follow":0},{"nm":"中影国际影城(昌平永旺店)","preferential":0,"sellPrice":31.0,"poiId":82598,"ct":"","sellmin":0,"sell":true,"addr":"昌平区北清路1号永旺国际商城3楼","area":"昌平区","lat":40.09749,"lng":116.28857,"deal":0,"distance":0,"imax":0,"brd":"中影国际影城","dis":"回龙观","brdId":23745,"dealPrice":0.0,"referencePrice":23.0,"showCount":0,"id":107,"follow":0}],"顺义区":[{"nm":"CGV星聚汇影城(顺义店)","preferential":0,"sellPrice":49.0,"poiId":6448554,"ct":"","sellmin":0,"sell":true,"addr":"顺义区新顺南大街8号华联购物中心4层CGV星聚汇国际影城","area":"顺义区","lat":40.12897,"lng":116.65173,"deal":0,"distance":0,"imax":0,"brd":"CGV影城","dis":"","brdId":2020418,"dealPrice":0.0,"referencePrice":0.0,"showCount":0,"id":8111,"follow":0},{"nm":"博纳国际影城(顺义店)","preferential":0,"sellPrice":44.0,"poiId":1437402,"ct":"","sellmin":0,"sell":true,"addr":"顺义区新顺南大街18号新世界百货七层","area":"顺义区","lat":40.126575,"lng":116.65212,"deal":0,"distance":0,"imax":0,"brd":"博纳国际影城","dis":"顺义","brdId":24595,"dealPrice":0.0,"referencePrice":70.0,"showCount":0,"id":69,"follow":0},{"nm":"橙天嘉禾影城(祥云小镇店)","preferential":0,"sellPrice":59.5,"poiId":40420215,"ct":"","sellmin":0,"sell":true,"addr":"顺义区安泰大街9号院7号楼二层（祥云小镇内）","area":"顺义区","lat":40.09027,"lng":116.53684,"deal":0,"distance":0,"imax":0,"brd":"橙天嘉禾影城","dis":"","brdId":24745,"dealPrice":0.0,"referencePrice":0.0,"showCount":0,"id":11102,"follow":0},{"nm":"大地影院(顺义隆华店)","preferential":0,"sellPrice":44.0,"poiId":41599879,"ct":"","sellmin":0,"sell":true,"addr":"顺义区新顺南大街11号隆华购物中心6F","area":"顺义区","lat":40.125973,"lng":116.650536,"deal":0,"distance":0,"imax":0,"brd":"大地影院","dis":"","brdId":384262,"dealPrice":0.0,"referencePrice":0.0,"showCount":0,"id":12394,"follow":0},{"nm":"华彩恐龙主题影城","preferential":0,"sellPrice":43.0,"poiId":116704263,"ct":"","sellmin":0,"sell":true,"addr":"顺义区后沙峪九重汇8层","area":"顺义区","lat":40.105373,"lng":116.54243,"deal":0,"distance":0,"imax":0,"brd":"其它","dis":"","brdId":0,"dealPrice":0.0,"referencePrice":0.0,"showCount":0,"id":16496,"follow":0},{"nm":"顺义影剧院","preferential":0,"sellPrice":33.0,"poiId":89018,"ct":"","sellmin":0,"sell":true,"addr":"顺义区新顺北大街3号","area":"顺义区","lat":40.1338,"lng":116.650375,"deal":0,"distance":0,"imax":0,"brd":"顺义影剧院","dis":"顺义","brdId":1148935,"dealPrice":0.0,"referencePrice":30.0,"showCount":0,"id":180,"follow":0}],"怀柔区":[{"nm":"传奇瑞丽影城","preferential":0,"sellPrice":43.0,"poiId":3260663,"ct":"","sellmin":0,"sell":true,"addr":"怀柔区青春路15号四层","area":"怀柔区","lat":40.317955,"lng":116.62985,"deal":0,"distance":0,"imax":0,"brd":"其它","dis":"怀柔","brdId":0,"dealPrice":0.0,"referencePrice":35.0,"showCount":0,"id":55,"follow":0},{"nm":"怀柔环球国际影城","preferential":0,"sellPrice":43.0,"poiId":150309419,"ct":"","sellmin":0,"sell":true,"addr":"怀柔区开放路泉河园二区和谐置家一层下元市场北","area":"怀柔区","lat":40.328953,"lng":116.64553,"deal":0,"distance":0,"imax":0,"brd":"其它","dis":"","brdId":0,"dealPrice":0.0,"referencePrice":0.0,"showCount":0,"id":16823,"follow":0},{"nm":"米珈尼汽车影院","preferential":0,"sellPrice":53.0,"poiId":94728699,"ct":"","sellmin":0,"sell":true,"addr":"怀柔区雁水路3号（雁栖湖景区正门停车场内）","area":"怀柔区","lat":40.397713,"lng":116.686356,"deal":0,"distance":0,"imax":0,"brd":"其它","dis":"","brdId":0,"dealPrice":0.0,"referencePrice":0.0,"showCount":0,"id":15748,"follow":0},{"nm":"怀柔区电影院","preferential":0,"sellPrice":0.0,"poiId":1541434,"ct":"","sellmin":0,"sell":false,"addr":"怀柔区富乐大街8号","area":"怀柔区","lat":40.34083,"lng":116.64014,"deal":0,"distance":0,"imax":0,"brd":"其它","dis":"怀柔","brdId":0,"dealPrice":0.0,"referencePrice":0.0,"showCount":0,"id":2378,"follow":0}],"门头沟区":[{"nm":"幸福蓝海影城(门头沟店)","preferential":0,"sellPrice":38.0,"poiId":42297501,"ct":"","sellmin":0,"sell":true,"addr":"门头沟区永定镇冯村华润购物中心2层","area":"门头沟区","lat":39.91212,"lng":116.11124,"deal":0,"distance":0,"imax":0,"brd":"幸福蓝海国际影城","dis":"","brdId":30053,"dealPrice":0.0,"referencePrice":0.0,"showCount":0,"id":10570,"follow":0},{"nm":"熙旺国际影城","preferential":0,"sellPrice":38.0,"poiId":40550440,"ct":"","sellmin":0,"sell":true,"addr":"门头沟区双峪路35号熙旺生活广场B座6层","area":"门头沟区","lat":39.93551,"lng":116.11315,"deal":0,"distance":0,"imax":0,"brd":"其它","dis":"","brdId":0,"dealPrice":0.0,"referencePrice":0.0,"showCount":0,"id":10979,"follow":0},{"nm":"门头沟影剧院","preferential":0,"sellPrice":33.0,"poiId":3260641,"ct":"","sellmin":0,"sell":false,"addr":"门头沟区新桥大街12号","area":"门头沟区","lat":39.9425,"lng":116.10049,"deal":0,"distance":0,"imax":0,"brd":"其它","dis":"门头沟","brdId":0,"dealPrice":0.0,"referencePrice":0.0,"showCount":0,"id":182,"follow":0}],"石景山区":[{"nm":"保利国际影城(苹果园店)","preferential":0,"sellPrice":43.0,"poiId":6596632,"ct":"","sellmin":0,"sell":true,"addr":"石景山区阜石路300号喜隆多三层","area":"石景山区","lat":39.92295,"lng":116.17175,"deal":0,"distance":0,"imax":0,"brd":"保利国际影城","dis":"","brdId":24472,"dealPrice":0.0,"referencePrice":0.0,"showCount":0,"id":10294,"follow":0},{"nm":"古城电影院","preferential":0,"sellPrice":33.0,"poiId":82589,"ct":"","sellmin":0,"sell":true,"addr":"石景山区古城南路15号","area":"石景山区","lat":39.9112,"lng":116.19126,"deal":0,"distance":0,"imax":0,"brd":"古城电影院","dis":"古城","brdId":302869,"dealPrice":0.0,"referencePrice":0.0,"showCount":0,"id":246,"follow":0},{"nm":"万达国际影城(石景山店)","preferential":0,"sellPrice":43.0,"poiId":298683,"ct":"","sellmin":0,"sell":true,"addr":"石景山区石景山路乙18号万达广场娱乐楼4楼","area":"石景山区","lat":39.905945,"lng":116.22568,"deal":0,"distance":0,"imax":1,"brd":"万达影城","dis":"鲁谷","brdId":102642,"dealPrice":0.0,"referencePrice":80.0,"showCount":0,"id":133,"follow":0}],"密云区":[{"nm":"米瑞酷影城(密云店)","preferential":0,"sellPrice":43.0,"poiId":112400372,"ct":"","sellmin":0,"sell":true,"addr":"密云区鼓楼南大街10号瑞嘉商场4层","area":"密云区","lat":40.374863,"lng":116.84608,"deal":0,"distance":0,"imax":0,"brd":"其它","dis":"","brdId":0,"dealPrice":0.0,"referencePrice":0.0,"showCount":0,"id":16595,"follow":0},{"nm":"密云大剧院","preferential":0,"sellPrice":38.0,"poiId":1436412,"ct":"","sellmin":0,"sell":true,"addr":"密云区鼓楼西大街1号","area":"密云区","lat":40.377117,"lng":116.84507,"deal":0,"distance":0,"imax":0,"brd":"其它","dis":"密云县","brdId":0,"dealPrice":0.0,"referencePrice":60.0,"showCount":0,"id":183,"follow":0}],"平谷区":[{"nm":"华联国际影城(平谷店)","preferential":0,"sellPrice":38.0,"poiId":97314976,"ct":"","sellmin":0,"sell":true,"addr":"平谷区迎宾路1号院22号楼五层F5-13","area":"平谷区","lat":40.14356,"lng":117.093155,"deal":0,"distance":0,"imax":0,"brd":"其它","dis":"","brdId":0,"dealPrice":0.0,"referencePrice":0.0,"showCount":0,"id":15082,"follow":0},{"nm":"平谷区影剧院","preferential":0,"sellPrice":33.0,"poiId":1156598,"ct":"","sellmin":0,"sell":true,"addr":"平谷区府前街3号","area":"平谷区","lat":40.14054,"lng":117.1224,"deal":0,"distance":0,"imax":0,"brd":"平谷区影剧院","dis":"平谷","brdId":505125,"dealPrice":0.0,"referencePrice":0.0,"showCount":0,"id":2379,"follow":0}],"延庆区":[{"nm":"大地影院(延庆金锣湾店)","preferential":0,"sellPrice":39.0,"poiId":1366944,"ct":"","sellmin":0,"sell":true,"addr":"延庆区妫水北街39号1幢H座首楼金锣湾商业中心沃尔玛旁","area":"延庆区","lat":40.461918,"lng":115.97629,"deal":0,"distance":0,"imax":0,"brd":"大地影院","dis":"延庆","brdId":384262,"dealPrice":0.0,"referencePrice":40.0,"showCount":0,"id":13,"follow":0}]}}
